city,latitude,longitude
Boulder City,35.9787638,-114.8337739
Carson City,39.167718,-119.7234381
Elko,41.1958128,-115.3272864
Ely,52.3990199,0.262039
Fallon,47.5075937,6.4807726
Genoa,44.40726,8.9338624
Goldfield,42.7358045,-93.92078
Henderson,32.182598,-95.7893178
Las Vegas,36.1672559,-115.148516
North Las Vegas,36.2005843,-115.1215844
Reno,39.5261206,-119.8126581
Sparks,39.5404679,-119.7487235
Virginia City,45.293796,-111.946123
Winnemucca,40.9724275,-117.7348184
